{
    "ports": [
        {
            "name": "Aarhus",
            "code": "DKAAR",
            "region": "Europe",
            "country": null,
            "latitude": 56.1572,
            "longitude": 10.2107
        },
        {
            "name": "Algeciras",
            "code": "ESALG",
            "region": "Europe",
            "country": null,
            "latitude": 36.1447,
            "longitude": -5.4534
        },
        {
            "name": "Antwerp",
            "code": "BEANR",
            "region": "Europe",
            "country": null,
            "latitude": 51.2194,
            "longitude": 4.4025
        },
        {
            "name": "Apapa",
            "code": "NGAPP",
            "region": "Africa",
            "country": null,
            "latitude": 6.45,
            "longitude": 3.3667
        },
        {
            "name": "Auckland",
            "code": "NZAKL",
            "region": "Oceania",
            "country": null,
            "latitude": -36.8485,
            "longitude": 174.7633
        },
        {
            "name": "Bangkok",
            "code": "THBKK",
            "region": "Asia",
            "country": null,
            "latitude": 13.7563,
            "longitude": 100.5018
        },
        {
            "name": "Barcelona",
            "code": "ESBCN",
            "region": "Europe",
            "country": null,
            "latitude": 41.3851,
            "longitude": 2.1734
        },
        {
            "name": "Belawan",
            "code": "IDBLW",
            "region": "Asia",
            "country": null,
            "latitude": 3.7868,
            "longitude": 98.6855
        },
        {
            "name": "Bilbao",
            "code": "ESBIO",
            "region": "Europe",
            "country": null,
            "latitude": 43.263,
            "longitude": -2.935
        },
        {
            "name": "Bremen",
            "code": "DEBRE",
            "region": "Europe",
            "country": null,
            "latitude": 53.0793,
            "longitude": 8.8017
        },
        {
            "name": "Bremerhaven",
            "code": "DEBRV",
            "region": "Europe",
            "country": null,
            "latitude": 53.5395,
            "longitude": 8.5809
        },
        {
            "name": "Brisbane",
            "code": "AUBNE",
            "region": "Oceania",
            "country": null,
            "latitude": -27.4698,
            "longitude": 153.0251
        },
        {
            "name": "Buenaventura",
            "code": "COBUN",
            "region": "South America",
            "country": null,
            "latitude": 3.8801,
            "longitude": -77.0312
        },
        {
            "name": "Buenos Aires",
            "code": "ARBUE",
            "region": "South America",
            "country": null,
            "latitude": -34.6037,
            "longitude": -58.3816
        },
        {
            "name": "Busan",
            "code": "KRPUS",
            "region": "Asia",
            "country": null,
            "latitude": 35.1796,
            "longitude": 129.0756
        },
        {
            "name": "Callao",
            "code": "PECLL",
            "region": "South America",
            "country": null,
            "latitude": -12.0464,
            "longitude": -77.1343
        },
        {
            "name": "Cape Town",
            "code": "ZACPT",
            "region": "Africa",
            "country": null,
            "latitude": -33.9249,
            "longitude": 18.4241
        },
        {
            "name": "Cebu",
            "code": "PHCEB",
            "region": "Asia",
            "country": null,
            "latitude": 10.3157,
            "longitude": 123.8854
        },
        {
            "name": "Colon",
            "code": "PAONX",
            "region": "Central America",
            "country": null,
            "latitude": 9.3592,
            "longitude": -79.8986
        },
        {
            "name": "Constanta",
            "code": "ROCND",
            "region": "Europe",
            "country": null,
            "latitude": 44.1598,
            "longitude": 28.6348
        },
        {
            "name": "Copenhagen",
            "code": "DKCPH",
            "region": "Europe",
            "country": null,
            "latitude": 55.6761,
            "longitude": 12.5683
        },
        {
            "name": "Dalian",
            "code": "CNDLC",
            "region": "Asia",
            "country": null,
            "latitude": 38.914,
            "longitude": 121.6147
        },
        {
            "name": "Davao",
            "code": "PHDVO",
            "region": "Asia",
            "country": null,
            "latitude": 7.0707,
            "longitude": 125.6087
        },
        {
            "name": "Dubai",
            "code": "AEDXB",
            "region": "Middle East",
            "country": null,
            "latitude": 25.2048,
            "longitude": 55.2708
        },
        {
            "name": "Durban",
            "code": "ZADUR",
            "region": "Africa",
            "country": null,
            "latitude": -29.8587,
            "longitude": 31.0218
        },
        {
            "name": "Felixstowe",
            "code": "GBFXT",
            "region": "Europe",
            "country": null,
            "latitude": 51.9625,
            "longitude": 1.3511
        },
        {
            "name": "Fremantle",
            "code": "AUFRE",
            "region": "Oceania",
            "country": null,
            "latitude": -32.056,
            "longitude": 115.7471
        },
        {
            "name": "Gdansk",
            "code": "PLGDN",
            "region": "Europe",
            "country": null,
            "latitude": 54.352,
            "longitude": 18.6466
        },
        {
            "name": "Gdynia",
            "code": "PLGDY",
            "region": "Europe",
            "country": null,
            "latitude": 54.5189,
            "longitude": 18.5305
        },
        {
            "name": "Genoa",
            "code": "ITGOA",
            "region": "Europe",
            "country": null,
            "latitude": 44.4056,
            "longitude": 8.9463
        },
        {
            "name": "Gioia Tauro",
            "code": "ITGIT",
            "region": "Europe",
            "country": null,
            "latitude": 38.4259,
            "longitude": 15.8969
        },
        {
            "name": "Gothenburg",
            "code": "SEGOT",
            "region": "Europe",
            "country": null,
            "latitude": 57.7089,
            "longitude": 11.9746
        },
        {
            "name": "Guangzhou",
            "code": "CNCAN",
            "region": "Asia",
            "country": null,
            "latitude": 23.1291,
            "longitude": 113.2644
        },
        {
            "name": "Gwangyang",
            "code": "KRKAN",
            "region": "Asia",
            "country": null,
            "latitude": 34.9067,
            "longitude": 127.6963
        },
        {
            "name": "Hai Phong",
            "code": "VNHPH",
            "region": "Asia",
            "country": null,
            "latitude": 20.8449,
            "longitude": 106.6881
        },
        {
            "name": "Hamburg",
            "code": "DEHAM",
            "region": "Europe",
            "country": null,
            "latitude": 53.5511,
            "longitude": 9.9937
        },
        {
            "name": "Helsinki",
            "code": "FIHEL",
            "region": "Europe",
            "country": null,
            "latitude": 60.1699,
            "longitude": 24.9384
        },
        {
            "name": "Ho Chi Minh City",
            "code": "",
            "region": "Asia",
            "country": null,
            "latitude": 10.8231,
            "longitude": 106.6297
        },
        {
            "name": "Hong Kong",
            "code": "HKHKG",
            "region": "Asia",
            "country": null,
            "latitude": 22.3193,
            "longitude": 114.1694
        },
        {
            "name": "Houston",
            "code": "USHOU",
            "region": "North America",
            "country": null,
            "latitude": 29.7604,
            "longitude": -95.3698
        },
        {
            "name": "Incheon",
            "code": "KRINC",
            "region": "Asia",
            "country": null,
            "latitude": 37.4563,
            "longitude": 126.7052
        },
        {
            "name": "Istanbul",
            "code": "TRIST",
            "region": "Europe",
            "country": null,
            "latitude": 41.0082,
            "longitude": 28.9784
        },
        {
            "name": "Izmir",
            "code": "TRIZM",
            "region": "Europe",
            "country": null,
            "latitude": 38.4237,
            "longitude": 27.1428
        },
        {
            "name": "Jebel Ali",
            "code": "AEJEA",
            "region": "Middle East",
            "country": null,
            "latitude": 24.9857,
            "longitude": 55.0078
        },
        {
            "name": "Jeddah",
            "code": "SAJED",
            "region": "Middle East",
            "country": null,
            "latitude": 21.4858,
            "longitude": 39.1925
        },
        {
            "name": "Kaliningrad",
            "code": "RUKGD",
            "region": "Europe",
            "country": null,
            "latitude": 54.7065,
            "longitude": 20.5106
        },
        {
            "name": "Kaohsiung",
            "code": "TWKHH",
            "region": "Asia",
            "country": null,
            "latitude": 22.6273,
            "longitude": 120.3014
        },
        {
            "name": "Keelung",
            "code": "TWKEL",
            "region": "Asia",
            "country": null,
            "latitude": 25.1276,
            "longitude": 121.7392
        },
        {
            "name": "Klaipeda",
            "code": "LTKLJ",
            "region": "Europe",
            "country": null,
            "latitude": 55.7068,
            "longitude": 21.1389
        },
        {
            "name": "Kobe",
            "code": "JPKOB",
            "region": "Asia",
            "country": null,
            "latitude": 34.6901,
            "longitude": 135.1956
        },
        {
            "name": "Koper",
            "code": "SIKOP",
            "region": "Europe",
            "country": null,
            "latitude": 45.5488,
            "longitude": 13.7291
        },
        {
            "name": "Kotka",
            "code": "FIKTK",
            "region": "Europe",
            "country": null,
            "latitude": 60.4665,
            "longitude": 26.9459
        },
        {
            "name": "Laem Chabang",
            "code": "THLCH",
            "region": "Asia",
            "country": null,
            "latitude": 13.1061,
            "longitude": 100.9158
        },
        {
            "name": "Le Havre",
            "code": "FRLEH",
            "region": "Europe",
            "country": null,
            "latitude": 49.4944,
            "longitude": 0.1079
        },
        {
            "name": "Lisbon",
            "code": "PTRLIS",
            "region": "Europe",
            "country": null,
            "latitude": 38.7223,
            "longitude": -9.1393
        },
        {
            "name": "Liverpool",
            "code": "GBLIV",
            "region": "Europe",
            "country": null,
            "latitude": 53.4084,
            "longitude": -2.9916
        },
        {
            "name": "Livorno",
            "code": "ITLIV",
            "region": "Europe",
            "country": null,
            "latitude": 43.5485,
            "longitude": 10.3106
        },
        {
            "name": "London Gateway",
            "code": "GBLGP",
            "region": "Europe",
            "country": null,
            "latitude": 51.5074,
            "longitude": 0.0566
        },
        {
            "name": "Long Beach",
            "code": "USLGB",
            "region": "North America",
            "country": null,
            "latitude": 33.7701,
            "longitude": -118.1937
        },
        {
            "name": "Los Angeles",
            "code": "USLAX",
            "region": "North America",
            "country": null,
            "latitude": 33.7701,
            "longitude": -118.1937
        },
        {
            "name": "Makassar",
            "code": "IDMAK",
            "region": "Asia",
            "country": null,
            "latitude": -5.1477,
            "longitude": 119.4327
        },
        {
            "name": "Manila",
            "code": "PHMNL",
            "region": "Asia",
            "country": null,
            "latitude": 14.5995,
            "longitude": 120.9842
        },
        {
            "name": "Manzanillo",
            "code": "MXZLO",
            "region": "Central America",
            "country": null,
            "latitude": 9.3592,
            "longitude": -79.8986
        },
        {
            "name": "Marseille",
            "code": "",
            "region": "Europe",
            "country": null,
            "latitude": 43.2965,
            "longitude": 5.3698
        },
        {
            "name": "Melbourne",
            "code": "AUMEL",
            "region": "Oceania",
            "country": null,
            "latitude": -37.8136,
            "longitude": 144.9631
        },
        {
            "name": "Mersin",
            "code": "TRMER",
            "region": "Europe",
            "country": null,
            "latitude": 36.8,
            "longitude": 34.6333
        },
        {
            "name": "Mombasa",
            "code": "KEMBA",
            "region": "Africa",
            "country": null,
            "latitude": -4.0435,
            "longitude": 39.6682
        },
        {
            "name": "Montreal",
            "code": "CAMTR",
            "region": "North America",
            "country": null,
            "latitude": 45.5017,
            "longitude": -73.5673
        },
        {
            "name": "Nagoya",
            "code": "JPNGO",
            "region": "Asia",
            "country": null,
            "latitude": 35.1815,
            "longitude": 136.9066
        },
        {
            "name": "Naples",
            "code": "ITNAP",
            "region": "Europe",
            "country": null,
            "latitude": 40.8518,
            "longitude": 14.2681
        },
        {
            "name": "New York",
            "code": "USNYC",
            "region": "North America",
            "country": null,
            "latitude": 40.7128,
            "longitude": -74.006
        },
        {
            "name": "Ningbo-Zhoushan",
            "code": "CNNGB",
            "region": "Asia",
            "country": null,
            "latitude": 29.8683,
            "longitude": 121.544
        },
        {
            "name": "Norfolk",
            "code": "USORF",
            "region": "North America",
            "country": null,
            "latitude": 36.8508,
            "longitude": -76.2859
        },
        {
            "name": "Oakland",
            "code": "USOAK",
            "region": "North America",
            "country": null,
            "latitude": 37.8044,
            "longitude": -122.2711
        },
        {
            "name": "Osaka",
            "code": "JPOSA",
            "region": "Asia",
            "country": null,
            "latitude": 34.6937,
            "longitude": 135.5023
        },
        {
            "name": "Oslo",
            "code": "NOOSL",
            "region": "Europe",
            "country": null,
            "latitude": 59.9139,
            "longitude": 10.7522
        },
        {
            "name": "Paris",
            "code": "FRPAR",
            "region": "Europe",
            "country": null,
            "latitude": 48.8566,
            "longitude": 2.3522
        },
        {
            "name": "Penang",
            "code": "MYPEN",
            "region": "Asia",
            "country": null,
            "latitude": 5.4164,
            "longitude": 100.3327
        },
        {
            "name": "Piraeus",
            "code": "GRPIR",
            "region": "Europe",
            "country": null,
            "latitude": 37.9432,
            "longitude": 23.6467
        },
        {
            "name": "Port Klang",
            "code": "MYPKG",
            "region": "Asia",
            "country": null,
            "latitude": 3.0003,
            "longitude": 101.3899
        },
        {
            "name": "Port Louis",
            "code": "",
            "region": "Africa",
            "country": null,
            "latitude": -20.1619,
            "longitude": 57.4989
        },
        {
            "name": "Port Said",
            "code": "EGPSD",
            "region": "Africa",
            "country": null,
            "latitude": 31.2653,
            "longitude": 32.3019
        },
        {
            "name": "Puerto Cabello",
            "code": "",
            "region": "South America",
            "country": null,
            "latitude": 10.4798,
            "longitude": -68.0075
        },
        {
            "name": "Qingdao",
            "code": "CNQDG",
            "region": "Asia",
            "country": null,
            "latitude": 36.0671,
            "longitude": 120.3826
        },
        {
            "name": "Riga",
            "code": "LVRIX",
            "region": "Europe",
            "country": null,
            "latitude": 56.9496,
            "longitude": 24.1052
        },
        {
            "name": "Rio de Janeiro",
            "code": "BRRIO",
            "region": "South America",
            "country": null,
            "latitude": -22.9068,
            "longitude": -43.1729
        },
        {
            "name": "Rotterdam",
            "code": "NLRTM",
            "region": "Europe",
            "country": null,
            "latitude": 51.9225,
            "longitude": 4.4792
        },
        {
            "name": "Salalah",
            "code": "OMSLL",
            "region": "Middle East",
            "country": null,
            "latitude": 17.0151,
            "longitude": 54.0924
        },
        {
            "name": "San Antonio",
            "code": "CLSAI",
            "region": "South America",
            "country": null,
            "latitude": -33.586,
            "longitude": -71.6111
        },
        {
            "name": "Santos",
            "code": "BRSSZ",
            "region": "South America",
            "country": null,
            "latitude": -23.9608,
            "longitude": -46.3331
        },
        {
            "name": "Savannah",
            "code": "USSAV",
            "region": "North America",
            "country": null,
            "latitude": 32.0809,
            "longitude": -81.0912
        },
        {
            "name": "Semarang",
            "code": "",
            "region": "Asia",
            "country": null,
            "latitude": -6.9666,
            "longitude": 110.4381
        },
        {
            "name": "Shanghai",
            "code": "CNSHA",
            "region": "Asia",
            "country": null,
            "latitude": 31.2304,
            "longitude": 121.4737
        },
        {
            "name": "Shenzhen",
            "code": "CNSZX",
            "region": "Asia",
            "country": null,
            "latitude": 22.5431,
            "longitude": 114.0579
        },
        {
            "name": "Singapore",
            "code": "SGSIN",
            "region": "Asia",
            "country": null,
            "latitude": 1.3521,
            "longitude": 103.8198
        },
        {
            "name": "Southampton",
            "code": "GBSOU",
            "region": "Europe",
            "country": null,
            "latitude": 50.9097,
            "longitude": -1.4044
        },
        {
            "name": "St. Petersburg",
            "code": "RULED",
            "region": "Europe",
            "country": null,
            "latitude": 59.9311,
            "longitude": 30.3609
        },
        {
            "name": "Surabaya",
            "code": "",
            "region": "Asia",
            "country": null,
            "latitude": -7.2575,
            "longitude": 112.7521
        },
        {
            "name": "Sydney",
            "code": "AUSYD",
            "region": "Oceania",
            "country": null,
            "latitude": -33.8688,
            "longitude": 151.2093
        },
        {
            "name": "Taichung",
            "code": "",
            "region": "Asia",
            "country": null,
            "latitude": 24.1477,
            "longitude": 120.6736
        },
        {
            "name": "Tanjung Pelepas",
            "code": "",
            "region": "Asia",
            "country": null,
            "latitude": 1.3667,
            "longitude": 103.55
        },
        {
            "name": "Tauranga",
            "code": "",
            "region": "Oceania",
            "country": null,
            "latitude": -37.6878,
            "longitude": 176.1651
        },
        {
            "name": "Tema",
            "code": "",
            "region": "Africa",
            "country": null,
            "latitude": 5.6667,
            "longitude": 0
        },
        {
            "name": "Tianjin",
            "code": "CNTNJ",
            "region": "Asia",
            "country": null,
            "latitude": 39.0842,
            "longitude": 117.765
        },
        {
            "name": "Tokyo",
            "code": "JPTYO",
            "region": "Asia",
            "country": null,
            "latitude": 35.6895,
            "longitude": 139.6917
        },
        {
            "name": "Trieste",
            "code": "ITTRS",
            "region": "Europe",
            "country": null,
            "latitude": 45.6495,
            "longitude": 13.7768
        },
        {
            "name": "Valencia",
            "code": "ESVAL",
            "region": "Europe",
            "country": null,
            "latitude": 39.4699,
            "longitude": -0.3763
        },
        {
            "name": "Valparaiso",
            "code": "CLVAP",
            "region": "South America",
            "country": null,
            "latitude": -33.0472,
            "longitude": -71.6127
        },
        {
            "name": "Vancouver",
            "code": "CAVAN",
            "region": "North America",
            "country": null,
            "latitude": 49.2827,
            "longitude": -123.1207
        },
        {
            "name": "Varna",
            "code": "BGVAR",
            "region": "Europe",
            "country": null,
            "latitude": 43.2141,
            "longitude": 27.9147
        },
        {
            "name": "Venice",
            "code": "ITVCE",
            "region": "Europe",
            "country": null,
            "latitude": 45.4408,
            "longitude": 12.3155
        },
        {
            "name": "Veracruz",
            "code": "",
            "region": "Central America",
            "country": null,
            "latitude": 19.1738,
            "longitude": -96.1342
        },
        {
            "name": "Vung Tau",
            "code": "VNVUT",
            "region": "Asia",
            "country": null,
            "latitude": 10.3459,
            "longitude": 107.0843
        },
        {
            "name": "Xiamen",
            "code": "CNXMN",
            "region": "Asia",
            "country": null,
            "latitude": 24.4798,
            "longitude": 118.0819
        },
        {
            "name": "Yantian",
            "code": "",
            "region": "Asia",
            "country": null,
            "latitude": 22.5875,
            "longitude": 114.2528
        },
        {
            "name": "Yokohama",
            "code": "JPYOK",
            "region": "Asia",
            "country": null,
            "latitude": 35.4437,
            "longitude": 139.638
        },
        {
            "name": "Zeebrugge",
            "code": "BEZEE",
            "region": "Europe",
            "country": null,
            "latitude": 51.3333,
            "longitude": 3.2
        }
    ],
    "container_types": [
        {
            "name": "20GP",
            "description": "20ft General Purpose"
        },
        {
            "name": "40GP",
            "description": "40ft General Purpose"
        },
        {
            "name": "40HC",
            "description": "40ft High Cube"
        }
    ],
    "indices": [
        {
            "index_name": "SCFI",
            "baseline_value": 1000,
            "weight_percentage": 40,
            "current_value": 1100
        },
        {
            "index_name": "CCFI",
            "baseline_value": 950,
            "weight_percentage": 30,
            "current_value": 1050
        },
        {
            "index_name": "FBX",
            "baseline_value": 1500,
            "weight_percentage": 30,
            "current_value": 1600
        }
    ],
    "base_rates": [
        {
            "origin_region": "Asia",
            "destination_region": "Europe",
            "container_type": "20GP",
            "rate": 1200
        },
        {
            "origin_region": "Asia",
            "destination_region": "Europe",
            "container_type": "40GP",
            "rate": 2000
        },
        {
            "origin_region": "Asia",
            "destination_region": "Europe",
            "container_type": "40HC",
            "rate": 2200
        },
        {
            "origin_region": "Europe",
            "destination_region": "Asia",
            "container_type": "20GP",
            "rate": 800
        },
        {
            "origin_region": "Europe",
            "destination_region": "Asia",
            "container_type": "40GP",
            "rate": 1500
        },
        {
            "origin_region": "Europe",
            "destination_region": "Asia",
            "container_type": "40HC",
            "rate": 1650
        },
        {
            "origin_region": "Asia",
            "destination_region": "North America",
            "container_type": "20GP",
            "rate": 1800
        },
        {
            "origin_region": "Asia",
            "destination_region": "North America",
            "container_type": "40GP",
            "rate": 3000
        },
        {
            "origin_region": "Asia",
            "destination_region": "North America",
            "container_type": "40HC",
            "rate": 3300
        }
    ]
}
